City,Cloudiness,Country,Date,Humidity,Lat,Lng,Max Temp,Wind Speed
mar del plata,20,ES,1604024384,93,43.4,-4.01,55.99,2.24
saint-pierre,75,RE,1604024384,56,-21.34,55.48,69.8,14.99
nerja,0,ES,1604024384,77,36.76,-3.89,59.0,3.22
mataura,100,NZ,1604024384,91,-46.19,168.86,61.0,1.99
bathsheba,40,BB,1604024385,88,13.22,-59.52,80.6,23.04
albany,100,US,1604024385,90,42.6,-73.97,42.01,10.85
baturaja,3,ID,1604024094,61,-4.13,104.17,86.97,2.66
rikitea,100,PF,1604024208,73,-23.12,-134.97,75.56,6.73
hobart,40,AU,1604024091,67,-42.88,147.33,66.0,17.22
tabou,100,CI,1604024385,91,4.42,-7.35,76.98,7.36
saint-francois,90,FR,1604024385,93,46.42,3.91,53.6,3.36
ushuaia,75,AR,1604024246,70,-54.8,-68.3,44.6,12.75
vaini,20,TO,1604024386,65,-21.2,-175.2,77.0,9.17
jinxiang,22,CN,1604024386,64,27.43,120.61,67.6,14.88
linjiang,0,CN,1604024386,45,41.81,126.91,48.27,1.23
belyy yar,100,RU,1604024386,86,55.84,32.94,44.4,5.61
cape town,0,CL,1604024386,63,-36.41,-71.9,62.6,5.82
clyde river,100,US,1604024386,86,41.3,-82.98,46.99,1.01
agogo,71,GH,1604024387,100,6.8,-1.08,69.93,2.8
galveston,90,US,1604024387,62,29.37,-94.97,57.2,29.97
east london,75,IS,1604024387,75,65.0,-15.0,46.4,3.36
srednekolymsk,100,RU,1604024387,93,67.45,153.68,6.04,1.36
taywarah,0,AF,1604024387,73,33.35,64.42,20.28,3.53
jatibonico,10,CU,1604024387,89,21.94,-79.17,74.62,5.44
chokurdakh,98,RU,1604024388,93,70.63,147.92,-3.71,1.72
busselton,0,AU,1604024388,26,-33.65,115.33,82.99,6.02
port elizabeth,100,CD,1604024163,63,-7.03,29.76,75.45,2.48
port alfred,100,CD,1604024163,63,-7.03,29.76,75.45,2.48
nikolskoye,90,RU,1604024388,93,59.7,30.79,50.0,4.47
namibe,1,AO,1604024292,74,-15.2,12.15,69.12,4.76
kathmandu,20,NP,1604024171,93,27.72,85.32,55.4,2.24
tiksi,98,RU,1604024308,95,71.69,128.87,9.86,5.46
nome,1,US,1604024389,68,64.5,-165.41,26.6,3.76
motygino,100,RU,1604024389,96,58.18,94.76,18.79,6.02
souillac,27,MU,1604024389,65,-20.52,57.52,68.0,5.99
birjand,0,IR,1604024389,9,32.87,59.22,30.2,9.17
cortez,1,US,1604024389,59,37.35,-108.59,39.0,3.36
dalvik,20,IS,1604024389,70,65.97,-18.53,44.6,8.05
hilo,90,US,1604024388,78,19.73,-155.09,80.6,4.7
carnarvon,75,AU,1604024389,69,-24.87,113.63,77.0,14.99
kapaa,1,US,1604024390,58,22.08,-159.32,82.4,11.41
kaitangata,100,NZ,1604024390,88,-46.28,169.85,62.01,4.81
dikson,100,RU,1604024275,93,73.51,80.55,9.1,25.9
bengkulu,99,ID,1604024390,87,-3.8,102.27,76.6,2.71
korla,90,CN,1604024390,74,41.76,86.15,42.01,1.99
georgetown,20,MY,1604024282,79,5.41,100.34,84.2,5.82
kavieng,100,PG,1604024390,77,-2.57,150.8,81.25,8.23
san luis,58,ML,1604024390,18,13.3,-4.9,76.5,5.17
alice springs,1,US,1604024391,48,27.75,-98.07,62.6,11.41
hithadhoo,64,MV,1604024281,77,-0.6,73.08,82.9,11.48
erseke,18,AL,1604024391,88,40.34,20.68,44.85,3.2
new norfolk,40,LR,1604024391,94,6.65,-10.59,77.0,1.99
necochea,0,AR,1604024391,74,-38.55,-58.74,43.5,1.32
vanavara,100,RU,1604024391,96,60.34,102.28,18.52,6.08
marsa matruh,20,MT,1604024392,88,35.88,14.5,66.0,9.17
punta arenas,100,PH,1604024392,89,8.99,125.34,78.04,1.03
sao felix do xingu,0,IN,1604024392,57,20.51,76.21,70.25,0.43
halifax,100,CA,1604024106,93,44.65,-63.57,44.01,1.01
lompoc,1,US,1604024386,87,34.64,-120.46,59.0,6.93
wanning,100,CN,1604024392,88,18.8,110.4,77.59,15.57
katangli,7,RU,1604024392,74,51.71,143.23,40.51,7.58
bredasdorp,12,ZA,1604024392,66,-34.53,20.04,50.0,5.82
arraial do cabo,100,BR,1604024393,94,-22.84,-46.65,68.0,11.41
hermanus,42,ZA,1604024393,87,-34.42,19.23,46.0,2.08
lata,0,PT,1604024393,100,40.16,-8.33,55.99,3.36
bondo,100,CD,1604024393,98,3.81,23.69,69.4,0.81
kalevala,88,RU,1604024393,83,65.2,31.17,43.59,12.5
mahebourg,17,MU,1604024292,65,-20.41,57.7,66.99,5.99
nuevitas,0,CU,1604024394,86,21.55,-77.26,79.02,8.21
olinda,40,BR,1604024349,74,-8.01,-34.86,80.6,9.17
college,90,US,1604024313,72,64.86,-147.8,17.6,5.82
taiobeiras,100,BR,1604024395,95,-15.81,-42.23,67.96,4.5
port blair,100,CD,1604024175,63,-7.03,29.76,75.45,2.48
roma,90,US,1604024395,81,43.21,-75.46,42.8,7.72
geraldton,0,AU,1604024395,28,-28.77,114.6,93.2,8.05
butaritari,72,KI,1604024115,75,3.07,172.79,82.04,11.52
kavaratti,0,IN,1604024395,68,10.57,72.64,82.87,6.98
poum,100,NC,1604024396,71,-20.23,164.02,77.54,13.56
sitka,40,US,1604024321,81,57.05,-135.33,44.6,10.29
avarua,97,CK,1604024396,69,-21.21,-159.78,77.0,11.41
puerto ayora,0,ES,1604024396,58,36.59,-6.23,57.2,6.93
tasiilaq,100,GL,1604024396,64,65.61,-37.64,35.6,24.16
vanimo,100,PG,1604024396,88,-2.67,141.3,77.43,6.02
thompson,88,CA,1604024397,98,55.74,-97.86,23.2,5.32
egvekinot,4,RU,1604024397,86,66.32,-179.17,14.4,0.87
victoria,96,HK,1604024264,77,22.29,114.16,77.0,8.16
port hedland,100,CD,1604024175,63,-7.03,29.76,75.45,2.48
qaanaaq,5,GL,1604024397,71,77.48,-69.36,4.96,6.29
kununurra,92,AU,1604024364,39,-15.77,128.73,96.8,5.82
seydi,0,TM,1604024397,69,39.48,62.91,37.35,8.55
ahipara,100,NZ,1604024397,67,-35.17,173.17,67.46,11.03
bluff,100,NZ,1604024398,91,-46.6,168.33,61.0,1.99
madang,100,PG,1604024398,67,-5.22,145.8,83.01,3.87
coatesville,90,US,1604024293,100,39.98,-75.82,48.0,4.7
kodiak,1,US,1604024323,56,57.79,-152.41,41.0,3.36
severo-kurilsk,48,RU,1604024383,80,50.68,156.12,44.1,12.46
guiratinga,100,BR,1604024398,92,-16.35,-53.76,70.77,1.61
teya,100,RU,1604024398,92,60.38,92.63,9.84,3.62
mbandaka,100,CD,1604024399,96,0.05,18.26,69.67,2.89
saposoa,100,PE,1604024399,85,-6.93,-76.77,75.38,2.95
beloha,0,MG,1604024399,79,-25.17,45.05,65.66,11.74
dakar,0,SN,1604024399,74,14.69,-17.44,78.8,13.87
xiongzhou,51,CN,1604024399,67,25.12,114.3,70.0,4.68
taoudenni,0,ML,1604024400,19,22.68,-3.98,75.25,14.63
barrow,40,US,1604024208,85,71.29,-156.79,24.8,12.75
kroya,30,ID,1604024400,74,-7.63,109.25,84.88,1.79
codrington,0,AU,1604024400,78,-38.27,141.97,59.65,12.24
auki,100,SB,1604024400,88,-8.77,160.7,77.13,5.84
mount gambier,100,GB,1604024400,96,53.66,-1.85,57.99,7.0
lake city,90,US,1604024400,59,42.33,-88.0,37.4,5.82
coro,79,VE,1604024401,82,11.4,-69.67,80.02,8.37
jamestown,90,US,1604024401,93,42.1,-79.24,43.0,11.41
port-gentil,100,GA,1604024401,81,-0.72,8.78,77.61,0.87
nuevo progreso,1,US,1604024128,20,33.8,-117.15,75.2,1.19
torbay,97,CA,1604024402,86,47.67,-52.73,41.0,3.0
marawi,100,PH,1604024402,86,8.0,124.29,81.0,5.01
singaraja,100,ID,1604024402,59,-8.11,115.09,87.04,3.69
guerrero negro,100,MX,1604024402,81,17.67,-100.0,69.04,5.3
bontang,59,ID,1604024316,67,0.13,117.5,83.66,7.31
khatanga,0,RU,1604024402,85,71.97,102.5,0.95,11.74
upernavik,100,GL,1604024403,97,72.79,-56.15,22.91,5.03
esperance,100,AU,1604024403,42,-33.87,121.9,66.2,12.75
sorland,98,NO,1604024404,73,67.67,12.69,39.15,14.88
caravelas,100,BR,1604024404,84,-17.71,-39.25,76.46,9.66
provideniya,0,RU,1604024405,63,64.38,-173.3,28.4,0.51
asau,100,RO,1604024405,88,46.43,26.4,48.0,4.23
nanortalik,100,GL,1604024405,94,60.14,-45.24,29.8,12.03
tuktoyaktuk,25,CA,1604024360,95,69.45,-133.04,5.29,6.13
narsaq,51,GL,1604024405,86,60.92,-46.05,30.2,2.24
castro,100,BR,1604024405,96,-24.79,-50.01,60.24,5.19
awbari,0,LY,1604024406,48,26.59,12.78,59.63,9.73
kurumkan,100,RU,1604024406,86,54.3,110.3,33.31,1.68
longyearbyen,20,SJ,1604024407,57,78.22,15.64,19.4,17.22
niquelandia,99,BR,1604024407,71,-14.47,-48.46,73.76,1.32
iqaluit,0,CA,1604024290,90,63.75,-68.51,4.44,8.97
beringovskiy,0,RU,1604024407,82,63.05,179.32,25.83,3.96
wangqing,0,CN,1604024407,56,43.32,129.76,42.87,3.33
cabo san lucas,40,BR,1604024408,74,-8.28,-35.03,80.6,9.17
kalmunai,60,LK,1604024408,75,7.42,81.82,80.06,8.52
aromashevo,100,RU,1604024408,94,56.86,68.64,34.16,9.08
tieli,69,CN,1604024408,70,46.95,128.05,38.52,4.85
oranjestad,20,AW,1604024408,83,12.52,-70.03,82.4,12.75
lorengau,100,PG,1604024409,74,-2.02,147.27,84.15,9.37
bathurst,99,AU,1604024250,46,-33.42,149.58,69.01,7.0
bambous virieux,6,MU,1604024409,65,-20.26,57.41,68.0,5.99
sao joaquim da barra,0,IN,1604024392,57,20.51,76.21,70.25,0.43
paamiut,0,GL,1604024409,88,61.99,-49.67,27.23,8.59
tanete,61,ID,1604024410,58,-3.94,119.78,85.91,4.99
aklavik,35,CA,1604024410,92,68.22,-135.01,9.23,6.71
husavik,20,IS,1604024271,70,66.04,-17.34,44.6,8.05
alofi,75,NU,1604024115,61,-19.06,-169.92,78.8,18.34
malakal,96,SS,1604024410,76,9.53,31.66,73.89,4.21
teeli,100,RU,1604024411,83,51.03,90.23,23.59,1.01
saldanha,0,ZA,1604024398,75,-33.01,17.94,44.6,4.7
reconquista,0,AR,1604024411,54,-29.15,-59.65,56.7,9.4
faanui,0,PF,1604024286,79,-16.48,-151.75,80.22,9.98
kahului,75,US,1604024411,55,20.89,-156.47,87.8,8.05
chuy,6,UY,1604024342,88,-33.7,-53.46,49.46,6.69
rio gallegos,20,GR,1604024143,93,38.3,21.78,53.6,4.09
yellowknife,80,CA,1604024412,94,62.46,-114.35,16.0,3.58
ostrovnoy,100,RU,1604024412,93,68.05,39.51,36.97,11.25
kattivakkam,75,IN,1604024412,100,13.22,80.32,77.0,10.42
san cristobal,58,ML,1604024412,18,13.3,-4.9,76.5,5.17
beruwala,100,LK,1604024412,80,6.48,79.98,78.94,4.7
ust-nera,100,RU,1604024412,88,64.57,143.2,10.72,2.8
morro bay,36,EC,1604024413,88,-2.63,-80.33,70.39,12.86
pudem,87,RU,1604024413,95,58.3,52.17,29.59,6.8
cap-aux-meules,100,CA,1604024413,76,47.38,-61.86,37.18,24.61
hailar,64,CN,1604024413,70,49.2,119.7,37.76,10.69
huarmey,100,PE,1604024413,83,-10.07,-78.15,63.57,8.79
atuona,86,PF,1604024414,73,-9.8,-139.03,78.15,15.39
lahaina,75,US,1604024414,69,20.88,-156.68,87.8,5.82
medea,20,DZ,1604024414,93,36.26,2.75,50.0,3.51
leova,9,MD,1604024414,76,46.48,28.26,51.98,1.45
tiznit,78,MA,1604024390,22,29.58,-9.5,71.82,10.71
vardo,75,NO,1604024326,81,70.37,31.11,36.61,19.98
abu kamal,0,IN,1604024414,46,24.6,72.7,61.18,3.47
yenagoa,100,NG,1604024415,93,4.92,6.26,75.88,2.86
manggar,100,ID,1604024415,72,-2.88,108.27,84.74,7.38
shaowu,5,CN,1604024166,59,27.34,117.48,73.26,1.39
coahuayana,17,MX,1604024415,83,18.73,-103.68,78.62,0.4
tanout,0,NE,1604024415,17,14.97,8.89,77.63,11.14
fairbanks,90,US,1604024416,78,64.84,-147.72,17.6,3.36
saint-augustin,85,CA,1604024192,87,51.23,-58.65,28.74,13.13
port macquarie,100,CD,1604024175,63,-7.03,29.76,75.45,2.48
laguna,1,US,1604024167,44,38.42,-121.42,66.0,2.8
sibolga,12,ID,1604024416,59,1.74,98.78,85.51,1.05
pevek,100,RU,1604024414,95,69.7,170.31,19.81,11.43
ribeira grande,75,ES,1604024416,87,42.75,-8.44,51.01,5.82
mumford,7,GH,1604024417,87,5.26,-0.76,77.38,7.0
nyurba,100,RU,1604024417,88,63.28,118.33,0.48,6.98
saskylakh,47,RU,1604024268,84,71.92,114.08,-0.15,6.13
constitucion,0,CL,1604024417,72,-35.33,-72.42,56.44,5.44
phatthalung,100,TH,1604024418,67,7.5,100.08,83.68,2.95
skaerbaek,90,DK,1604024418,93,55.16,8.77,48.99,8.05
pangody,90,RU,1604024418,96,65.85,74.49,9.64,8.39
taybad,0,IR,1604024418,66,34.74,60.78,33.58,5.35
lavrentiya,0,RU,1604024419,88,65.58,-171.0,25.18,3.89
fuerte olimpo,86,PH,1604024419,68,17.54,120.36,84.16,4.79
aitape,100,PG,1604024419,86,-3.14,142.35,78.13,1.79
mys shmidta,100,RU,1604024420,95,62.06,48.62,41.97,8.14
ixtapa,5,MX,1604024420,78,20.7,-105.2,80.6,4.7
faranah,11,GN,1604024420,61,10.04,-10.74,67.89,0.87
luderitz,0,NA,1604024420,74,-26.65,15.16,56.39,27.83
pullman,1,US,1604024420,62,46.73,-117.18,51.8,6.93
batagay,100,RU,1604024331,91,67.63,134.63,2.64,1.39
belmonte,75,BR,1604024421,94,-15.86,-38.88,73.4,5.82
tinskoy,86,RU,1604024421,80,56.15,96.92,26.8,9.4
west wendover,5,US,1604024421,87,31.8,-97.09,52.0,4.7
iberia,1,US,1604024421,66,29.95,-91.75,55.4,17.22
pangai,40,TO,1604024421,61,-19.8,-174.35,77.0,14.99
hamilton,90,US,1604024421,87,39.18,-84.53,45.0,11.41
kaeo,100,NZ,1604024421,73,-35.1,173.78,68.0,8.01
abonnema,40,NG,1604024421,94,4.71,6.79,75.2,2.91
petropavlovsk-kamchatskiy,75,RU,1604024422,61,53.05,158.65,46.4,2.24
caledon,0,ZA,1604024422,87,-34.23,19.43,46.0,1.16
nemuro,75,JP,1604024422,66,43.32,145.57,48.2,10.29
mogadishu,0,SO,1604024395,80,2.04,45.34,78.73,6.13
saint-philippe,75,RE,1604024275,56,-21.36,55.77,69.8,14.99
valencia,0,ES,1604024177,87,39.33,-0.83,57.99,4.7
jiujiang,0,CN,1604024422,60,29.73,115.98,66.83,12.39
kiama,40,AU,1604024423,49,-34.68,150.87,69.8,11.41
naze,40,JP,1604024423,53,28.37,129.48,77.0,12.75
maniitsoq,81,GL,1604024424,89,65.42,-52.9,24.98,11.72
galesong,19,ID,1604024424,65,-5.32,119.37,86.29,10.69
wewak,100,PG,1604024424,76,-3.55,143.63,78.76,1.07
tual,0,ID,1604024336,73,-5.67,132.75,82.87,9.42
benalla,75,AU,1604024424,64,-36.55,145.98,72.0,8.05
bay roberts,90,US,1604024425,74,43.73,-84.02,37.4,4.7
lujan,3,AR,1604024425,86,-34.57,-59.1,55.99,6.98
bonavista,39,CA,1604024425,87,48.65,-53.11,37.99,11.01
marsabit,96,KE,1604024425,94,2.33,37.99,63.77,19.44
vokhma,16,RU,1604024425,97,58.93,46.76,31.42,6.85
zletovo,75,MK,1604024425,93,41.99,22.24,50.0,2.24
labuhan,86,ID,1604024425,61,-6.88,112.21,87.51,9.53
lagoa,100,PT,1604024426,90,39.05,-27.98,67.24,10.78
byron bay,90,US,1604024244,64,44.03,-92.65,33.8,4.7
kungurtug,62,RU,1604024426,77,50.6,97.52,23.11,2.66
san patricio,58,ML,1604024426,18,13.3,-4.9,76.5,5.17
hofn,100,IS,1604024427,87,64.25,-15.21,45.07,12.5
vila velha,75,PT,1604024427,93,42.03,-8.16,57.0,6.93
agadez,0,NE,1604024427,24,19.75,10.25,68.34,11.95
macae,0,BR,1604024316,100,-22.37,-41.79,77.0,2.24
lixourion,6,GR,1604024427,69,38.2,20.43,65.41,15.95
phan rang,40,TH,1604024427,94,19.55,99.74,75.0,11.41
baykit,96,RU,1604024428,92,61.67,96.37,11.14,2.44
sembe,94,CG,1604024428,95,1.65,14.58,67.42,0.81
kieta,78,PG,1604024428,73,-6.22,155.63,84.45,11.16
garowe,33,SO,1604024428,73,8.41,48.48,75.85,7.36
kozhevnikovo,100,RU,1604024428,99,56.26,83.97,31.28,7.61
fort nelson,100,NL,1604024140,95,52.65,6.39,57.0,7.0
sobolevo,100,RU,1604024429,87,54.43,31.9,45.03,6.04
nehe,100,CN,1604024429,64,48.48,124.83,38.82,15.59
fortuna,1,US,1604024429,100,40.6,-124.16,54.0,1.23
buala,100,SB,1604024429,79,-8.14,159.59,81.01,9.08
ponta do sol,100,PT,1604024429,96,38.73,-28.27,64.04,10.92
dingle,100,PH,1604024430,84,11.0,122.67,80.71,9.04
green river,90,US,1604024430,87,40.95,-81.48,48.2,10.29
ferme-neuve,51,CA,1604024430,92,46.7,-75.45,24.13,8.21
cidreira,100,BR,1604024431,66,-30.18,-50.21,60.51,9.53
siderno,28,IT,1604024432,97,38.28,16.3,46.0,10.83
paracuru,36,BR,1604024432,75,-3.41,-39.03,80.01,18.01
ponta delgada,100,PT,1604024432,96,38.73,-28.27,64.04,10.92
hasaki,75,JP,1604024433,54,35.73,140.83,61.0,8.05
mucurapo,20,TT,1604024433,88,10.67,-61.53,80.6,7.58
mastic beach,90,US,1604024433,93,40.8,-72.84,48.2,25.28
mushie,100,CD,1604024433,90,-3.02,16.9,71.06,2.42
bethel,90,US,1604024433,93,41.37,-73.41,44.6,11.41
destin,1,US,1604024356,45,30.39,-86.5,66.2,9.17
capari,39,MK,1604024433,84,41.06,21.18,46.06,4.05
chupa,100,RU,1604024434,94,66.27,33.05,39.92,8.7
okhotsk,100,RU,1604024434,94,59.38,143.3,29.19,10.6
jiuquan,30,CN,1604024434,63,39.74,98.52,39.43,3.51
roald,0,NO,1604024434,81,62.58,6.13,42.8,9.17
cherskiy,100,RU,1604024434,93,68.75,161.3,7.81,3.49
bosaso,0,SO,1604024434,79,11.28,49.18,78.03,1.41
sao filipe,0,IN,1604024392,57,20.51,76.21,70.25,0.43
najran,0,SA,1604024435,45,17.49,44.13,57.2,1.48
ilulissat,69,GL,1604024375,67,69.22,-51.1,19.4,3.36
luena,31,AO,1604024435,93,-11.78,19.92,62.11,3.8
bowen,0,AU,1604024435,33,-20.02,148.23,91.4,11.41
kadoma,75,JP,1604024435,55,34.73,135.58,66.99,8.05
itoman,75,JP,1604024435,65,26.12,127.67,77.0,20.8
airai,0,TL,1604024436,48,-8.93,125.41,77.92,2.62
ancud,79,CL,1604024391,76,-41.87,-73.82,50.0,12.75
san leandro,58,ML,1604024412,18,13.3,-4.9,76.5,5.17
deputatskiy,100,RU,1604024436,96,69.3,139.9,3.72,1.1
flin flon,75,FR,1604024436,87,48.5,6.66,55.4,11.41
fort wellington,100,NL,1604024140,95,52.65,6.39,57.0,7.0
waupun,90,US,1604024436,64,43.63,-88.73,35.6,6.38
yumen,98,CN,1604024437,62,40.28,97.2,39.92,17.0
buraydah,0,SA,1604024437,38,26.33,43.98,59.0,6.22
cayenne,20,GF,1604024437,83,4.93,-52.33,82.4,5.82
broome,90,US,1604024437,93,42.25,-75.83,42.01,12.75
cockburn town,75,AU,1604024437,52,-32.08,141.0,64.4,20.8
salalah,0,OM,1604024437,73,17.02,54.09,75.2,4.7
baruun-urt,100,MN,1604024438,51,46.68,113.28,43.07,14.99
afua,23,BR,1604024438,84,-0.16,-50.39,79.41,7.72
lebu,71,CL,1604024438,83,-37.62,-73.65,52.34,17.74
pierre,90,US,1604024428,86,44.37,-100.35,37.4,6.93
luau,97,AO,1604024438,93,-10.71,22.22,66.83,2.48
xichang,90,CN,1604024438,72,27.9,102.26,64.76,1.74
tongchuan,50,CN,1604024438,68,35.08,109.09,54.27,8.14
san juan,58,ML,1604024412,18,13.3,-4.9,76.5,5.17
tevaitoa,1,PF,1604024439,77,-16.78,-151.5,80.8,10.22
demidov,100,RU,1604024439,89,55.27,31.52,45.68,5.79
kamina,95,CD,1604024440,94,-8.74,24.99,61.97,3.29
xintai,0,CN,1604024440,50,35.9,117.75,59.86,3.56
livingston,40,GB,1604024440,77,55.9,-3.52,59.0,20.8
asandh,0,IN,1604024440,30,29.52,76.6,64.98,3.11
pasni,0,PK,1604024440,32,25.26,63.47,72.5,17.13
tongling,0,CN,1604024441,64,30.95,117.78,65.03,10.67
christchurch,87,NZ,1604024256,72,-43.53,172.63,66.2,10.29
hamamatsu,22,JP,1604024442,55,34.7,137.73,68.0,5.99
socorro,5,US,1604024442,34,31.65,-106.3,59.0,11.16
poli,73,TZ,1604024442,95,-3.33,36.8,56.86,4.65
honningsvag,100,NO,1604024397,85,70.98,25.97,36.0,20.62
goderich,100,CA,1604024442,81,43.75,-81.72,41.0,16.37
kasongo-lunda,100,CD,1604024443,94,-6.47,16.82,71.08,2.71
bayan,56,CN,1604024443,41,46.08,127.4,44.01,5.66
tevriz,100,RU,1604024443,91,57.51,72.4,36.43,9.24
mayrtup,90,RU,1604024443,93,43.2,46.13,55.4,2.24
boda,60,CF,1604024443,94,4.32,17.47,67.01,1.59
san jeronimo,58,ML,1604024444,18,13.3,-4.9,76.5,5.17
touros,40,BR,1604024341,83,-5.2,-35.46,77.0,3.36
wuwei,35,CN,1604024444,48,37.93,102.64,48.16,13.87
skjervoy,97,NO,1604024444,75,70.03,20.97,37.78,21.45
port lincoln,100,CD,1604024163,63,-7.03,29.76,75.45,2.48
altay,71,CN,1604024444,86,47.87,88.12,23.54,3.51
tuatapere,100,NZ,1604024444,91,-46.13,167.68,61.0,1.99
kindersley,65,CA,1604024198,90,51.47,-109.17,33.73,9.98
pirganj,0,BD,1604024445,67,25.85,88.36,75.09,4.74
kawalu,60,ID,1604024445,73,-7.38,108.21,82.47,3.02
hobyo,99,SO,1604024445,81,5.35,48.53,79.02,7.81
akureyri,20,IS,1604024445,70,65.68,-18.09,44.6,8.05
vestmannaeyjar,100,IS,1604024279,78,63.44,-20.27,45.77,20.09
koshki,79,RU,1604024446,86,54.21,50.47,34.3,9.57
gat,99,IL,1604024446,100,31.61,34.76,71.01,4.0
maningrida,28,AU,1604024446,21,-12.07,134.27,93.34,4.81
isparta,75,TR,1604024446,87,38.0,31.0,55.4,3.36
rio cuarto,40,GR,1604024446,93,38.3,21.78,53.6,4.09
santo angelo,100,EC,1604024447,84,-0.59,-80.0,70.86,5.68
balkhash,0,KZ,1604024447,81,46.84,74.98,32.0,4.47
rjukan,62,NO,1604024447,85,59.88,8.59,32.0,1.23
filadelfia,90,US,1604024273,93,39.95,-75.16,48.99,12.75
praia,20,CV,1604024447,78,14.92,-23.51,78.8,17.22
calbuco,0,CL,1604024448,76,-41.77,-73.13,48.2,9.17
grand gaube,1,US,1604024448,49,38.88,-109.5,48.2,2.68
nantucket,90,US,1604024406,92,41.28,-70.1,51.01,23.04
west bay,5,US,1604024448,87,31.8,-97.09,52.0,4.7
zhezkazgan,0,KZ,1604024448,82,47.8,67.71,31.78,3.67
nouadhibou,0,MR,1604024324,77,20.93,-17.03,68.0,17.22
talnakh,65,RU,1604024448,87,69.49,88.4,4.08,9.19
slupca,1,PL,1604024448,80,52.29,17.87,46.0,5.01
salym,99,RU,1604024449,94,60.06,71.48,34.97,8.23
mega,78,ET,1604024449,98,4.05,38.3,58.78,8.59
vostok,100,RU,1604024449,100,46.49,135.88,32.68,3.15
tigre,0,AR,1604024450,54,-34.43,-58.58,57.2,11.41
marang,71,MY,1604024450,74,5.21,103.21,83.08,3.2
sao miguel do araguaia,0,IN,1604024392,57,20.51,76.21,70.25,0.43
lasa,5,IT,1604024451,93,46.62,10.7,45.0,5.82
chitrakonda,100,IN,1604024451,71,18.12,82.08,70.27,2.39
chebenki,0,RU,1604024451,86,51.93,55.71,28.4,6.71
outjo,35,NA,1604024451,55,-20.12,16.15,65.84,5.35
micco,0,US,1604024452,84,27.88,-80.5,82.0,9.75
chachapoyas,100,PE,1604024452,70,-6.23,-77.87,58.32,1.36
saint-paul,0,RE,1604024453,52,-21.01,55.27,69.8,25.28
nyrob,100,RU,1604024454,94,60.73,56.72,33.84,8.93
sisimiut,95,GL,1604024454,94,66.94,-53.67,21.29,7.05
kloulklubed,90,PW,1604024454,79,7.04,134.26,84.2,5.82
berlin,75,DE,1604024407,87,52.52,13.41,50.0,5.82
leningradskiy,51,RU,1604024454,88,69.38,178.42,17.29,13.87
shingu,40,JP,1604024454,45,33.73,135.98,66.2,13.87
eregli,0,TR,1604024455,56,37.51,34.05,50.43,0.78
itarema,69,BR,1604024328,82,-2.92,-39.92,77.92,15.12
ekibastuz,100,KZ,1604024455,89,51.67,75.37,33.42,18.45
kawana waters,20,AU,1604024455,52,-23.33,150.51,87.8,9.17
enshi,92,CN,1604024455,85,30.3,109.48,59.77,2.04
marystown,100,CA,1604024287,79,47.17,-55.15,42.35,13.31
muroto,75,JP,1604024456,37,33.28,134.15,68.0,16.11
vila franca do campo,75,PT,1604024427,93,42.03,-8.16,57.0,6.93
opuwo,11,NA,1604024456,40,-18.06,13.84,64.36,5.46
blyth,97,GB,1604024456,77,55.13,-1.51,59.0,8.05
luanda,75,AO,1604024251,88,-8.84,13.23,77.0,4.7
bouna,0,CI,1604024457,54,9.27,-3.0,73.72,2.37
port hardy,100,CD,1604024175,63,-7.03,29.76,75.45,2.48
morondava,5,MG,1604024458,82,-20.28,44.28,77.52,6.51
kruisfontein,16,ZA,1604024458,82,-34.0,24.73,55.0,1.99
ferrol,40,ES,1604024458,100,43.48,-8.24,48.2,5.82
erzin,40,TR,1604024459,87,36.96,36.2,59.0,1.12
bud,90,US,1604024459,87,39.45,-86.18,45.0,9.17
flinders,40,AU,1604024459,49,-34.58,150.86,73.0,11.41
mehamn,96,NO,1604024459,84,71.04,27.85,34.7,18.54
raymondville,1,US,1604024438,51,26.48,-97.78,66.0,6.93
atar,51,MR,1604024460,22,20.52,-13.05,79.97,7.99
bolivar,0,US,1604024460,88,37.61,-93.41,43.0,8.41
hami,7,CN,1604024460,49,42.8,93.45,45.64,9.46
meulaboh,90,ID,1604024308,70,4.14,96.13,81.16,3.8
tagusao,63,PH,1604024460,73,9.19,117.81,84.27,9.37
carmo do rio claro,92,BR,1604024460,88,-21.93,-42.61,71.78,2.93
benghazi,50,LY,1604024461,68,32.12,20.07,70.27,8.9
yabelo,99,ET,1604024461,94,4.88,38.08,59.05,7.38
qaqortoq,80,GL,1604024461,86,60.72,-46.03,30.2,2.24
cowra,76,AU,1604024461,66,-33.83,148.68,61.0,4.0
fort saint john,100,NL,1604024461,90,52.65,6.39,57.0,4.0
gashua,0,NG,1604024462,20,12.87,11.05,79.57,10.4
sept-iles,0,CA,1604024463,65,50.2,-66.38,27.0,8.01
coroico,40,BO,1604024463,45,-16.19,-67.73,48.2,9.17
ulladulla,40,AU,1604024463,49,-35.35,150.47,69.8,11.41
nuuk,47,GL,1604024291,79,64.18,-51.72,21.2,6.93
payo,9,ID,1604024463,64,-3.75,103.64,86.76,0.45
havelock,90,US,1604024463,83,34.88,-76.9,78.01,18.34
isla mujeres,4,PH,1604024463,72,15.89,120.3,85.03,5.01
metro,8,ID,1604024381,63,-5.11,105.31,85.66,4.29
palmer,90,US,1604024386,93,42.16,-72.33,43.0,10.29
pangnirtung,56,CA,1604024465,83,66.15,-65.71,6.08,3.74
pailon,75,BO,1604024465,57,-17.65,-62.75,75.2,21.92
sawtell,0,AU,1604024465,64,-30.38,153.1,79.0,19.46
gatton,20,AU,1604024465,20,-27.55,152.28,87.8,8.05
pitanga,100,BR,1604024466,91,-24.76,-51.76,58.44,8.86
akcakoca,4,TR,1604024466,76,41.09,31.12,60.22,3.18
rio grande,40,GR,1604024446,93,38.3,21.78,53.6,4.09
istok,75,XK,1604024466,76,42.78,20.49,50.0,3.36
baghdad,40,IQ,1604024178,50,33.34,44.4,57.2,2.24
chunskiy,97,RU,1604024466,84,56.08,99.63,27.14,10.16
eureka,0,US,1604024332,77,40.8,-124.16,54.0,1.83
karachi,0,PK,1604024467,88,24.91,67.08,66.2,5.73
pontypridd,90,GB,1604024467,93,51.6,-3.34,57.2,13.87
novyy svit,75,RU,1604024467,93,45.01,38.98,60.8,6.71
ihtiman,100,BG,1604024468,98,42.43,23.82,48.99,1.01
bourail,99,NC,1604024468,49,-21.57,165.48,83.95,4.68
turayf,0,SA,1604024468,30,31.67,38.66,59.0,8.05
port-cartier,0,CA,1604024468,65,50.03,-66.87,27.0,8.01
muros,1,ES,1604024468,92,42.78,-9.06,51.01,3.0
sungaipenuh,98,ID,1604024468,77,-2.08,101.38,73.58,0.72
adrar,100,MR,1604024469,16,20.5,-10.07,79.72,8.32
basco,2,PH,1604024469,78,20.45,121.97,80.92,26.84
carahue,0,CL,1604024469,76,-38.7,-73.17,51.8,2.24
araouane,40,ML,1604024469,16,18.9,-3.53,81.9,10.2
waitati,100,NZ,1604024469,87,-45.75,170.57,57.0,11.01
kristianstad,80,SE,1604024469,100,56.03,14.15,46.0,5.1
pisco,0,PE,1604024470,82,-13.7,-76.22,63.0,19.46
edson,100,CA,1604024470,96,53.58,-116.44,30.72,3.87
bagaces,20,CR,1604024470,94,10.53,-85.25,77.0,3.36
mezen,100,RU,1604024470,89,65.85,44.24,42.03,11.52
yulara,0,AU,1604024470,26,-25.24,130.99,71.6,12.75
dergachi,98,RU,1604024466,72,51.23,48.77,39.36,11.25
bushenyi,100,UG,1604024471,98,-0.59,30.21,61.57,0.72
shache,98,CN,1604024471,53,38.42,77.24,39.85,3.31
kimbe,27,PG,1604024471,75,-5.55,150.14,84.94,4.52
petatlan,100,MX,1604024471,84,17.52,-101.27,79.3,1.81
coquimbo,0,CL,1604024276,87,-29.95,-71.34,53.6,4.7
alta floresta,100,NO,1604024471,92,69.97,23.27,33.01,11.41
toora-khem,37,RU,1604024468,88,52.47,96.11,20.7,3.69
rocha,87,UY,1604024295,79,-34.48,-54.33,51.3,9.46
snasa,99,NO,1604024472,86,64.25,12.38,40.06,2.71
carutapera,2,BR,1604024472,85,-1.2,-46.02,78.31,7.49
abu dhabi,0,IN,1604024472,46,24.6,72.7,61.18,3.47
jaciara,100,BR,1604024210,94,-15.97,-54.97,73.02,2.06
jalu,0,LY,1604024472,81,29.03,21.55,61.43,8.5
banff,100,CA,1604024352,100,51.18,-115.57,30.99,1.01
novorudnyy,0,RU,1604024473,79,51.5,58.19,28.4,2.24
norman wells,1,US,1604024473,65,35.22,-97.44,46.4,4.7
cedar city,1,US,1604024473,92,41.21,-92.53,36.0,6.93
fort morgan,100,NL,1604024473,90,52.65,6.39,57.0,4.0
hovd,37,MN,1604024473,70,48.01,91.64,27.84,8.68
vallenar,0,CL,1604024474,67,-28.57,-70.76,57.34,3.56
kidal,16,ML,1604024474,17,18.44,1.41,77.54,10.63
takestan,0,IR,1604024474,56,36.07,49.7,44.6,2.24
coihaique,0,CL,1604024474,66,-45.58,-72.07,48.2,3.36
faya,0,SA,1604024475,37,18.39,42.45,55.4,2.68
nipawin,5,CA,1604024475,97,53.37,-104.0,26.44,7.23
xixiang,0,CN,1604024475,99,35.16,112.86,60.01,8.61
muzaffarabad,0,PK,1604024475,34,34.37,73.47,57.36,5.19
adeje,20,ES,1604024475,68,28.12,-16.73,68.0,3.36
teahupoo,40,PF,1604024475,78,-17.83,-149.27,82.4,13.87
kamaishi,75,JP,1604024477,81,39.27,141.88,46.4,5.82
gonda,0,IN,1604024477,56,27.13,81.93,71.04,4.94
northam,100,GB,1604024477,93,51.03,-4.22,60.01,8.99
ormara,0,PK,1604024477,34,25.21,64.64,75.07,8.34
novo aripuana,0,CU,1604024477,84,22.78,-82.23,78.13,4.09
ola,100,RU,1604024477,90,59.58,151.28,31.06,4.92
oros,36,BR,1604024477,65,-6.24,-38.91,79.05,8.43
eldoret,100,KE,1604024430,94,0.52,35.27,55.27,7.2
lavumisa,35,SZ,1604024478,90,-27.31,31.89,67.64,3.09
victor harbor,100,US,1604024478,94,42.98,-77.41,45.0,12.73
ugoofaaru,64,MV,1604024478,73,5.67,73.0,82.36,7.61
mount isa,100,GB,1604024400,96,53.66,-1.85,57.99,7.0
sechura,100,PE,1604024478,80,-5.56,-80.82,65.68,12.08
fereydun kenar,0,IR,1604024478,23,34.37,46.92,41.0,0.96
san quintin,58,ML,1604024412,18,13.3,-4.9,76.5,5.17
rudnichnyy,90,RU,1604024479,97,59.62,52.47,30.51,8.12
moron,0,AR,1604024479,51,-34.65,-58.62,59.0,9.17
dunedin,100,NZ,1604024190,86,-45.87,170.5,57.0,5.01
chalons-en-champagne,90,FR,1604024479,93,48.95,4.37,57.2,17.22
grindavik,90,IS,1604024479,93,63.84,-22.43,39.2,12.75
alyangula,100,AU,1604024479,55,-13.85,136.42,89.6,6.93
whitehorse,97,CA,1604024385,90,60.72,-135.05,24.01,1.01
poya,95,NC,1604024479,50,-21.35,165.15,83.89,4.5
bima,100,ID,1604024480,45,-8.47,118.72,92.26,3.02
leh,22,IN,1604024480,72,34.17,77.58,28.02,2.57
simpang,98,ID,1604024480,88,-1.27,104.08,80.28,3.51
tromso,90,NO,1604024480,94,69.65,18.96,32.0,17.22
otane,89,NZ,1604024402,62,-39.88,176.63,75.0,3.0
kilifarevo,75,BG,1604024480,100,42.98,25.63,54.0,2.24
aborlan,40,PH,1604024481,66,9.44,118.55,87.8,16.11
salur,60,IN,1604024481,56,18.53,83.22,76.48,3.6
amahai,81,ID,1604024481,69,-3.33,128.92,84.15,4.27
takoradi,0,GH,1604024481,87,4.88,-1.76,77.47,5.35
mahibadhoo,96,MV,1604024481,73,3.78,72.97,82.71,9.35
dwarka,0,IN,1604024482,60,22.24,68.97,79.83,9.33
cooma,90,AU,1604024482,71,-36.23,149.13,57.2,6.93
bandar penggaram,100,ID,1604024482,70,2.05,99.75,83.52,2.01
catuday,13,PH,1604024482,77,16.29,119.81,82.53,2.98
plettenberg bay,100,DE,1604024482,93,51.22,7.88,52.0,12.41
san-pedro,47,CI,1604024482,93,4.75,-6.64,76.24,4.14
grand river south east,1,US,1604024482,49,38.88,-109.5,48.2,2.68
camacha,40,PT,1604024483,77,33.08,-16.33,68.0,5.82
merauke,0,ID,1604024483,61,-8.47,140.33,85.8,8.93
fukue,75,JP,1604024483,59,32.69,128.84,66.2,16.11
pocone,100,BR,1604024483,91,-16.26,-56.62,72.7,2.17
san rafael,58,ML,1604024426,18,13.3,-4.9,76.5,5.17
piacabucu,99,BR,1604024483,84,-10.41,-36.43,76.44,13.31
belaya gora,100,UA,1604024484,94,49.03,25.77,51.01,3.0
stornoway,98,GB,1604024484,93,58.21,-6.39,53.6,12.75
kudahuvadhoo,54,MV,1604024484,77,2.67,72.89,82.53,10.67
zwedru,99,LR,1604024484,95,6.07,-8.13,72.41,1.45
serebryansk,90,KZ,1604024484,100,49.69,83.29,33.8,11.18
turukhansk,88,RU,1604024468,94,65.82,87.98,3.13,5.06
eyl,94,SO,1604024484,74,7.98,49.82,79.52,1.1
robertsport,100,LR,1604024485,82,6.75,-11.37,79.38,9.22
